,City,Cloudiness,Country,Date,Humidity,Lat,Lng,Max Temp,Wind Speed
0,mataura,75,NZ,1633829151,40,-46.1927,168.8643,64.47,4.59
1,bluff,58,NZ,1633828853,57,-46.6,168.3333,64.8,3.24
2,barrow,90,US,1633829152,80,71.2906,-156.7887,30.22,4.61
3,coquimbo,0,CL,1633829153,71,-29.9533,-71.3436,55.13,5.75
4,hasaki,31,JP,1633829153,76,35.7333,140.8333,73.69,6.71
5,port hedland,100,CD,1633829154,51,-7.0349,29.7638,79.48,2.75
6,clyde river,3,US,1633829154,79,41.3042,-82.9752,70.59,6.6
7,alugan,100,PH,1633828916,72,12.2188,125.4808,83.73,18.1
8,cape town,30,CL,1633829155,87,-36.413,-71.9028,51.22,1.45
9,longyearbyen,0,SJ,1633829155,79,78.2186,15.6401,19.24,8.05
10,rafsanjan,0,IR,1633829156,41,30.4067,55.9939,54.63,6.4
11,nanortalik,12,GL,1633829085,82,60.1432,-45.2371,36.03,7.56
12,pimenta bueno,98,BR,1633829156,94,-20.4839,-45.7989,68.41,6.53
13,vila,93,PT,1633829156,60,42.0304,-8.1588,59.32,4.9
14,mondragone,40,IT,1633829157,67,41.1141,13.8935,62.83,11.54
15,severo-kurilsk,50,RU,1633829157,71,50.6789,156.125,47.48,12.68
16,ostrovnoy,100,RU,1633829157,97,68.0531,39.5131,39.61,9.98
17,ribeira grande,0,ES,1633829158,85,42.7461,-8.4439,64.65,3.44
18,delaware,90,US,1633829158,90,39.0004,-75.4999,69.01,3.0
19,arraial do cabo,100,BR,1633829158,95,-22.8362,-46.646,62.01,7.81
20,atuona,9,PF,1633829159,73,-9.8,-139.0333,78.15,17.02
21,talara,84,PE,1633829159,89,-4.5772,-81.2719,64.49,12.59
22,qarayeri,75,AZ,1633829159,81,40.7886,46.3066,50.88,4.61
23,luganville,84,VU,1633829160,83,-15.5333,167.1667,79.43,12.84
24,shingu,71,JP,1633829160,88,33.7333,135.9833,83.39,7.43
25,carnarvon,0,AU,1633829160,27,-24.8667,113.6333,75.27,17.27
26,pevek,100,RU,1633829161,93,69.7008,170.3133,25.63,2.89
27,quesnel,90,CA,1633829162,93,52.9999,-122.5029,45.1,4.61
28,balingasay,100,PH,1633829048,77,16.3573,119.8564,82.89,3.6
29,yinchuan,100,CN,1633829163,39,38.4681,106.2731,46.38,6.08
30,lompoc,1,US,1633829101,81,34.6391,-120.4579,73.38,13.8
31,avarua,91,CK,1633829163,57,-21.2078,-159.775,80.65,4.61
32,ushuaia,75,AR,1633828893,81,-54.8,-68.3,42.46,23.02
33,hobart,75,AU,1633829164,50,-42.8794,147.3294,58.01,1.01
34,bredasdorp,1,ZA,1633829066,87,-34.5322,20.0403,51.28,4.61
35,morondava,0,MG,1633829165,85,-20.2833,44.2833,73.98,3.85
36,thinadhoo,100,MV,1633829165,73,0.5333,72.9333,83.03,12.77
37,lahij,47,YE,1633829165,80,13.1667,44.5833,79.07,4.18
38,karasjok,100,NO,1633829166,99,69.4719,25.5112,37.51,5.46
39,kuytun,100,RU,1633829166,61,54.3419,101.5036,39.22,5.73
40,punta arenas,77,PH,1633829167,70,8.9897,125.34,84.99,14.34
41,kindu,100,CD,1633829167,90,-2.95,25.95,70.39,2.04
42,albany,100,US,1633828954,80,42.6001,-73.9662,59.81,5.99
43,busselton,71,AU,1633829168,66,-33.65,115.3333,59.04,7.52
44,vaini,40,TO,1633829066,89,-21.2,-175.2,78.96,4.61
45,imbituba,100,BR,1633829168,93,-28.24,-48.6703,64.81,10.8
46,rikitea,94,PF,1633828992,81,-23.1203,-134.9692,74.57,17.31
47,mahebourg,75,MU,1633829168,83,-20.4081,57.7,72.25,8.05
48,sinnamary,100,GF,1633829169,74,5.3833,-52.95,79.63,12.97
49,puerto escondido,100,ES,1633829170,69,36.5939,-6.233,69.62,2.3
50,butaritari,39,KI,1633829170,74,3.0707,172.7902,81.64,11.52
51,castro,100,BR,1633828895,98,-24.7911,-50.0119,56.14,9.19
52,richards bay,90,US,1633829171,94,46.8361,-95.9123,63.09,12.66
53,qaanaaq,100,GL,1633829172,74,77.484,-69.3632,28.26,13.29
54,torbay,75,CA,1633829172,88,47.6666,-52.7314,43.57,24.16
55,deputatskiy,100,RU,1633829173,80,69.3,139.9,21.04,4.18
56,gunjur,75,GM,1633829173,94,13.2019,-16.7339,78.87,0.0
57,kieta,20,PG,1633829174,69,-6.2167,155.6333,84.88,5.64
58,berlevag,100,NO,1633829174,91,70.8578,29.0864,40.26,6.78
59,sola,89,VU,1633829175,81,-13.8833,167.55,79.18,20.67
60,puerto ayora,100,ES,1633829175,69,36.5939,-6.233,69.62,2.3
61,leningradskiy,100,RU,1633829176,94,69.3833,178.4167,20.05,4.27
62,kaitangata,11,NZ,1633829177,65,-46.2817,169.8464,58.93,6.4
63,tailai,1,CN,1633829177,43,46.3833,123.4,51.6,26.11
64,xifeng,97,CN,1633829178,60,42.7372,124.7222,49.66,15.3
65,alta floresta,40,NO,1633829178,88,69.9689,23.2717,40.26,4.61
66,mys shmidta,100,RU,1633829179,88,62.0589,48.6201,32.36,3.0
67,bilibino,98,RU,1633829179,93,68.0546,166.4372,11.28,1.23
68,faanui,22,PF,1633829052,70,-16.4833,-151.75,78.75,5.82
69,ust-maya,17,RU,1633829180,72,60.4167,134.5333,36.5,5.91
70,lagoa,99,PT,1633829180,80,39.05,-27.9833,69.71,23.15
71,mantua,95,IT,1633829180,73,45.1667,10.7833,58.28,1.99
72,provideniya,32,RU,1633829181,72,64.3833,-173.3,32.45,3.83
73,verkhnevilyuysk,100,RU,1633829181,96,63.4453,120.3167,36.45,10.6
74,barranca,100,PE,1633829182,91,-10.75,-77.7667,61.81,8.79
75,lebu,2,CL,1633829055,95,-37.6167,-73.65,49.82,7.52
76,kapaa,75,US,1633829182,70,22.0752,-159.319,85.98,7.0
77,komsomolskiy,75,UZ,1633829097,46,40.4272,71.7189,52.52,6.91
78,sawtell,93,AU,1633829183,57,-30.3833,153.1,89.19,18.41
79,dikson,100,RU,1633829183,59,73.5069,80.5464,30.07,24.09
80,kiama,95,AU,1633829176,79,-34.6833,150.8667,71.38,3.0
81,lanciano,93,IT,1633829184,78,42.2167,14.3882,53.55,10.56
82,cidreira,100,BR,1633829110,90,-30.1811,-50.2056,63.82,18.95
83,hirara,40,JP,1633829184,79,24.8,125.2833,85.86,21.85
84,yellowknife,90,CA,1633829089,100,62.456,-114.3525,42.42,2.3
85,boyolangu,72,ID,1633829185,72,-8.1181,111.8935,81.19,8.68
86,cody,90,US,1633829185,83,44.5263,-109.0565,52.41,0.0
87,tasiilaq,90,GL,1633829186,73,65.6145,-37.6368,32.16,6.55
88,kaniama,4,CD,1633829186,66,-7.5667,24.1833,70.23,0.94
89,bathsheba,75,BB,1633829186,94,13.2167,-59.5167,75.81,18.41
90,saurimo,31,AO,1633829187,39,-9.6608,20.3916,70.07,0.69
91,isangel,75,VU,1633829187,65,-19.55,169.2667,78.91,13.8
92,bethel,90,US,1633829187,82,41.3712,-73.414,62.04,1.99
93,grand gaube,9,US,1633829188,31,38.8755,-109.5012,55.58,7.74
94,nioro,71,GM,1633829188,88,13.35,-15.75,76.66,6.26
95,codrington,59,AU,1633829163,73,-38.2667,141.9667,53.11,11.95
96,utica,100,US,1633829189,83,43.1009,-75.2327,60.78,8.43
97,nizhniy kuranakh,99,RU,1633829189,64,45.3926,39.2364,46.98,12.59
98,ust-karsk,1,RU,1633829189,58,52.7011,118.8077,40.75,3.33
99,bengkulu,27,ID,1633829190,86,-3.8004,102.2655,79.39,3.42
100,iqaluit,90,CA,1633829190,93,63.7506,-68.5145,35.33,0.0
101,harper,100,LR,1633829190,90,4.375,-7.7169,76.23,6.06
102,bana,100,CM,1633829191,99,5.1481,10.2762,61.2,0.85
103,jamestown,75,US,1633829141,86,42.097,-79.2353,62.71,5.99
104,arman,0,RU,1633829191,42,59.7,150.1667,34.43,2.37
105,balykshi,0,KZ,1633829192,50,47.0667,51.8667,46.56,6.46
106,lingdong,91,CN,1633829192,70,46.5669,131.1453,57.83,21.34
107,hithadhoo,89,MV,1633829193,70,-0.6,73.0833,82.54,11.05
108,khatanga,100,RU,1633829193,97,71.9667,102.5,15.82,1.01
109,jalu,0,LY,1633829193,33,29.0331,21.5482,74.57,9.53
110,valparaiso,75,CL,1633828923,82,-33.0393,-71.6273,56.32,4.61
111,pangnirtung,100,CA,1633829194,90,66.1451,-65.7125,31.32,2.39
112,narrabri,96,AU,1633829194,42,-30.3167,149.7833,83.52,26.46
113,liwale,86,TZ,1633829195,84,-9.7667,37.9333,68.2,5.73
114,borba,0,BR,1633829195,71,-4.3878,-59.5939,79.07,1.1
115,ordu,32,TR,1633829195,90,40.9086,37.6845,50.5,3.06
116,sao filipe,10,IN,1633829196,80,20.5113,76.2129,71.2,4.36
117,korla,8,CN,1633829196,44,41.7597,86.1469,44.6,1.45
118,erenhot,0,CN,1633829197,41,43.6475,111.9767,40.91,15.79
119,pizarro,100,CO,1633829197,87,4.9533,-77.366,75.2,2.53
120,hermanus,0,ZA,1633829197,82,-34.4187,19.2345,55.9,9.91
121,port alfred,100,CD,1633829198,51,-7.0349,29.7638,79.48,2.75
122,yenagoa,99,NG,1633829198,96,4.9247,6.2642,74.82,3.4
123,hilo,90,US,1633829086,88,19.7297,-155.09,77.29,10.36
124,tucumcari,1,US,1633829157,23,35.1717,-103.725,75.94,8.05
125,kununurra,32,AU,1633829199,29,-15.7667,128.7333,94.98,4.61
126,norman wells,1,US,1633829144,43,35.2226,-97.4395,84.61,1.99
127,gold coast,1,US,1633829200,96,35.7932,-81.762,66.15,0.0
128,banda aceh,97,IN,1633829200,57,25.4833,80.3333,76.82,4.09
129,aleksandrovskiy zavod,5,RU,1633829201,70,51.7095,45.0145,43.16,5.88
130,geraldton,0,AU,1633829114,30,-28.7667,114.6,72.01,14.97
131,padang,32,ID,1633829201,80,-0.9492,100.3543,80.65,2.48
132,new norfolk,90,LR,1633829202,95,6.6518,-10.5932,74.79,2.64
133,derzhavinsk,0,KZ,1633829202,61,51.1,66.3167,38.8,5.79
134,kloulklubed,100,PW,1633829052,78,7.0419,134.2556,73.9,20.31
135,saint-philippe,73,RE,1633829202,85,-21.3585,55.7679,69.35,13.94
136,dudinka,100,RU,1633829203,88,69.4058,86.1778,23.18,12.17
137,airai,88,TL,1633829059,23,-8.9266,125.4092,78.42,2.98
138,heihe,8,CN,1633829203,66,50.2441,127.4902,48.78,19.42
139,along,40,IN,1633829204,95,28.1667,94.7667,71.91,0.94
140,bandarbeyla,98,SO,1633829204,81,9.4942,50.8122,78.39,18.01
141,nago,93,JP,1633829204,75,26.5881,127.9761,85.05,19.73
142,krasnoarmeysk,0,RU,1633829205,65,51.0239,45.6969,46.29,5.68
143,upernavik,100,GL,1633829205,75,72.7868,-56.1549,32.54,18.43
144,morgaushi,100,RU,1633829205,71,55.9643,46.7743,37.56,6.22
145,shizunai,96,JP,1633829206,82,42.3339,142.3669,63.41,14.85
146,kudahuvadhoo,100,MV,1633829206,75,2.6708,72.8944,83.1,12.86
147,tura,0,IN,1633829206,86,25.5198,90.2201,75.38,2.57
148,port elizabeth,100,CD,1633829198,51,-7.0349,29.7638,79.48,2.75
149,aron,9,IN,1633829207,67,24.3833,77.4167,72.28,5.35
150,mehamn,100,NO,1633829208,95,71.0357,27.8492,39.85,6.76
151,san cristobal,5,ML,1633829208,26,13.3034,-4.8956,83.43,1.14
152,kazuno,66,JP,1633829208,63,40.1836,140.7872,74.01,6.31
153,mitu,100,CO,1633829209,96,1.1983,-70.1733,73.83,1.36
154,narsaq,9,GL,1633829209,46,60.9167,-46.05,30.42,6.85
155,esperance,41,AU,1633829210,48,-33.8667,121.9,57.04,3.0
156,cabo san lucas,4,BR,1633829210,83,-8.2833,-35.0333,78.73,5.77
157,johi,0,PK,1633829210,42,26.6921,67.6133,86.32,6.71
158,yatou,100,CN,1633829211,81,37.15,122.3833,61.79,17.27
159,san quintin,5,ML,1633829211,26,13.3034,-4.8956,83.43,1.14
160,ixtapa,90,MX,1633829211,79,20.7,-105.2,85.23,4.61
161,vao,26,NC,1633829212,61,-22.6667,167.4833,70.38,14.79
162,northam,97,GB,1633829212,96,51.0333,-4.2167,59.4,5.12
163,kurilsk,100,RU,1633829213,69,45.2333,147.8833,57.87,14.74
164,guider,100,CM,1633829213,61,9.9342,13.9486,79.18,1.9
165,barra do garcas,45,BR,1633829213,42,-11.0894,-43.1417,80.78,7.34
166,vostok,100,RU,1633829214,98,46.4856,135.8833,45.3,4.9
167,chokurdakh,82,RU,1633829214,94,70.6333,147.9167,10.33,5.61
168,korablino,17,RU,1633829214,74,53.9164,40.0133,33.42,4.36
169,poum,0,NC,1633829215,65,-20.2333,164.0167,74.34,9.26
170,gat,0,IL,1633829215,74,31.61,34.7642,72.39,5.14
171,namatanai,61,PG,1633829216,68,-3.6667,152.4333,84.87,7.85
172,nikolskoye,100,RU,1633829064,82,59.7035,30.7861,51.87,5.37
173,nautanwa,0,IN,1633829216,82,27.4333,83.4167,74.05,2.64
174,vitim,100,RU,1633829217,93,59.4511,112.5578,39.11,17.96
175,bilma,6,NE,1633829217,18,18.6853,12.9164,80.6,4.85
176,guozhen,100,CN,1633829218,95,34.3659,107.359,43.66,5.64
177,witu,6,KE,1633829218,82,-2.3889,40.4382,75.36,7.43
178,misratah,100,LY,1633829218,66,32.3754,15.0925,75.27,11.74
179,nalut,1,LY,1633829219,64,30.3333,10.85,67.37,10.71
180,makhachkala,85,RU,1633829219,74,42.9764,47.5024,55.02,15.26
181,port antonio,100,CD,1633829220,51,-7.0349,29.7638,79.48,2.75
182,pafos,0,CY,1633829220,59,34.7667,32.4167,66.11,5.75
183,madimba,54,TZ,1633829221,86,-10.4,40.3333,74.73,7.0
184,rawson,0,AR,1633829221,33,-43.3002,-65.1023,64.49,20.94
185,georgetown,20,MY,1633829222,80,5.4112,100.3354,84.13,1.99
186,kahului,40,US,1633829222,85,20.8947,-156.47,80.62,16.11
187,neryungri,4,RU,1633829222,72,56.6709,124.6491,32.32,2.42
188,santa marta,100,PH,1633829223,74,17.486,120.4348,82.67,1.77
189,zalantun,83,CN,1633829223,61,48.0,122.7167,45.41,27.96
190,kalmunai,100,LK,1633829224,73,7.4167,81.8167,80.53,2.39
191,caloundra,0,AU,1633829224,68,-26.8,153.1333,86.36,8.01
192,muscat,3,OM,1633829224,49,23.6139,58.5922,78.82,5.17
193,kyzyl,9,RU,1633829225,61,51.7,94.45,33.57,2.55
194,yar-sale,100,RU,1633829225,91,66.8333,70.8333,29.05,16.91
195,meulaboh,20,ID,1633829225,78,4.1363,96.1285,79.36,4.92
196,thompson,20,CA,1633829226,65,55.7435,-97.8558,44.76,3.44
197,lata,37,PT,1633829226,71,40.1629,-8.3327,60.08,3.4
198,batagay,100,RU,1633829226,62,67.6333,134.6333,33.1,5.97
199,college,75,US,1633829227,84,64.8569,-147.8028,39.58,5.75
200,portland,75,US,1633828525,71,45.5234,-122.6762,63.39,4.0
201,surt,4,LY,1633829227,78,31.2089,16.5887,75.45,13.15
202,mar del plata,20,ES,1633829228,94,43.4002,-4.0094,61.02,1.01
203,teknaf,18,BD,1633829228,86,20.8624,92.3058,80.22,2.98
204,chuy,2,UY,1633829228,84,-33.6971,-53.4616,56.48,9.75
205,san patricio,5,ML,1633829228,26,13.3034,-4.8956,83.43,1.14
206,naze,22,JP,1633829229,74,28.3667,129.4833,81.52,20.13
207,tiksi,94,RU,1633829229,90,71.6872,128.8694,19.38,1.66
208,cairns,72,AU,1633829216,49,-16.9167,145.7667,90.07,11.5
209,piacabucu,4,BR,1633829230,79,-10.4056,-36.4344,75.13,8.08
210,guerrero negro,100,MX,1633829230,94,17.6667,-100.0,68.25,3.78
211,gazli,2,UZ,1633829230,46,40.1333,63.45,44.74,6.35
212,longyan,93,CN,1633829231,74,25.1072,117.0225,77.76,4.63
213,caravelas,100,BR,1633829170,74,-17.7125,-39.2481,73.53,7.16
214,beyla,85,GN,1633829231,97,8.6833,-8.6333,67.87,1.92
215,harsesti,100,RO,1633829232,37,44.5333,24.7833,44.17,14.07
216,rio brilhante,100,GR,1633829232,81,38.3,21.7833,66.78,8.14
217,bani walid,3,DO,1633829232,81,18.2833,-70.3333,82.85,5.68
218,hobyo,22,SO,1633829233,85,5.3505,48.5268,78.28,11.7
219,fulton,1,US,1633829233,88,33.7668,-84.4499,72.5,0.0
220,arys,3,KZ,1633829234,34,42.4252,68.795,46.62,10.63
221,maceio,75,BR,1633829102,94,-9.6658,-35.7353,76.44,3.44
222,avera,0,US,1633829234,86,33.194,-82.5271,70.72,6.55
223,jacareacanga,0,BR,1633829235,72,-6.2222,-57.7528,78.53,1.39
224,hualmay,79,PE,1633829123,88,-11.0964,-77.6139,62.98,11.23
225,saskylakh,100,RU,1633829087,95,71.9167,114.0833,19.13,2.33
226,simao,98,CN,1633829236,80,22.7886,100.9748,68.25,2.93
227,kawalu,87,ID,1633829236,82,-7.3817,108.2082,77.02,3.4
228,meadow lake,100,US,1633829237,89,45.5291,-102.2163,53.29,15.86
229,panaci,27,RO,1633829237,67,47.2667,25.3833,33.44,3.36
230,san juan,5,ML,1633829208,26,13.3034,-4.8956,83.43,1.14
231,mhlume,89,SZ,1633829238,63,-26.0333,31.85,68.86,13.62
232,ponta do sol,100,PT,1633829238,82,38.7333,-28.2667,65.79,23.51
233,campos sales,100,BR,1633829136,87,-21.75,-41.3,66.22,3.51
234,eseka,100,CM,1633829239,100,3.65,10.7667,72.63,2.62
235,iberia,1,US,1633829240,88,29.9502,-91.7507,78.12,3.44
236,lampa,75,CL,1633829225,67,-33.2833,-70.9,56.64,10.36
237,hackettstown,100,US,1633829241,84,40.854,-74.8291,64.06,1.01
238,victoria,100,HK,1633829229,86,22.2855,114.1577,83.25,1.01
239,katsuura,41,JP,1633829241,77,35.1333,140.3,74.19,6.58
240,kastamonu,33,TR,1633829242,90,41.5,33.6667,47.77,1.5
241,monrovia,89,LR,1633829031,87,6.3005,-10.7969,77.18,5.66
242,half moon bay,79,LR,1633829242,91,6.3807,-10.6953,76.14,4.45
243,kirillov,100,RU,1633829243,95,59.863,38.3813,45.46,4.85
244,san jeronimo,5,ML,1633829211,26,13.3034,-4.8956,83.43,1.14
245,kavieng,91,PG,1633829089,70,-2.5744,150.7967,83.8,8.05
246,pisco,0,PE,1633829243,88,-13.7,-76.2167,63.01,11.5
247,bubaque,27,GW,1633829079,76,11.2833,-15.8333,82.29,9.06
248,westport,90,US,1633829244,83,41.1415,-73.3579,64.54,11.01
249,dingle,100,PH,1633829244,97,10.9995,122.6711,74.75,7.58
250,salalah,20,OM,1633829245,78,17.0151,54.0924,78.89,4.61
251,havre-saint-pierre,75,CA,1633829245,93,50.2334,-63.5986,48.2,2.3
252,ust-kan,4,RU,1633829245,83,50.9276,84.761,23.23,4.12
253,faya,8,SA,1633829246,46,18.3851,42.4509,62.71,8.43
254,rudbar,0,AF,1633829246,34,30.15,62.6,54.66,13.2
255,galesong,96,ID,1633829246,63,-5.3166,119.3661,84.22,9.26
256,shakawe,5,BW,1633829247,14,-18.3667,21.85,71.4,5.12
257,asau,0,RO,1633829190,84,46.4333,26.4,37.76,4.32
258,maningrida,71,AU,1633829247,61,-12.0667,134.2667,87.15,9.73
259,prabumulih,14,ID,1633829247,79,-3.45,104.25,81.21,4.43
260,margate,41,GB,1633829248,99,51.3813,1.3862,52.95,5.08
261,pahrump,16,US,1633829079,18,36.2083,-115.9839,71.65,4.0
262,kargasok,100,RU,1633829248,92,59.0556,80.8572,33.67,7.87
263,tamandare,10,BR,1633829249,78,-8.7597,-35.1047,75.07,6.4
264,samarkand,2,UZ,1633829249,48,39.6542,66.9597,38.62,2.3
265,klaksvik,99,FO,1633829249,86,62.2266,-6.589,50.92,23.31
266,manicore,92,BR,1633829250,72,-5.8092,-61.3003,79.0,2.51
267,laguna,1,US,1633829250,34,38.421,-121.4238,74.23,1.99
268,cozumel,75,MX,1633829005,86,20.5083,-86.9458,84.18,4.61
269,rocha,0,UY,1633829251,94,-34.4833,-54.3333,50.16,5.46
270,adre,51,TD,1633829251,19,13.4667,22.2,78.21,13.62
271,sitka,75,US,1633829251,76,57.0531,-135.33,44.49,10.36
272,taltal,0,CL,1633829252,63,-25.4,-70.4833,60.24,4.45
273,port lincoln,100,CD,1633829252,51,-7.0349,29.7638,79.48,2.75
274,cayenne,100,GF,1633829093,78,4.9333,-52.3333,83.08,1.01
275,constitucion,67,CL,1633829105,90,-35.3333,-72.4167,50.54,3.56
276,yulara,75,AU,1633829155,52,-25.2406,130.9889,66.04,17.27
277,ilulissat,40,GL,1633829253,69,69.2167,-51.1,32.02,14.97
278,green river,1,US,1633829253,90,40.9459,-81.4832,68.2,6.91
279,port-gentil,100,GA,1633829254,88,-0.7193,8.7815,77.77,14.94
280,ancud,0,CL,1633829254,93,-41.8697,-73.8203,50.43,3.47
281,kodiak,1,US,1633829148,43,57.79,-152.4072,53.11,31.07
282,balabag,100,PH,1633828997,85,11.97,121.9192,79.47,25.68
283,zeya,100,RU,1633829255,71,53.75,127.2667,40.62,15.48
284,karratha,0,AU,1633829255,27,-20.7377,116.8463,82.98,23.4
285,vestmannaeyjar,100,IS,1633829256,84,63.4427,-20.2734,45.75,13.58
286,jaciara,98,BR,1633829256,44,-15.9653,-54.9683,86.68,2.93
287,lethem,27,GY,1633829257,66,3.3803,-59.7968,81.63,3.38
288,hohhot,0,CN,1633829257,48,40.8106,111.6522,39.49,4.47
289,myitkyina,6,MM,1633829257,81,25.3833,97.4,78.48,0.89
290,yagodnoye,18,RU,1633829258,74,62.55,149.6667,20.34,3.47
291,fengzhen,100,CN,1633829258,36,40.4394,113.1536,41.07,14.67
292,batagay-alyta,100,RU,1633829258,71,67.8006,130.4114,22.78,3.67
293,darhan,0,MN,1633829259,53,49.4867,105.9228,37.17,7.2
294,fortuna,0,US,1633829052,64,40.5982,-124.1573,67.48,3.0
295,macapa,40,BR,1633829259,83,0.0389,-51.0664,82.38,3.44
296,tiarei,16,PF,1633828992,69,-17.5333,-149.3333,84.22,3.02
297,princeton,75,US,1633829260,88,25.5384,-80.4089,75.99,5.75
298,bambanglipuro,84,ID,1633829261,73,-7.95,110.2833,65.61,9.08
299,patamundai,60,IN,1633829261,80,20.5667,86.5667,81.57,3.62
300,prudentopolis,100,BR,1633829261,99,-25.2131,-50.9778,58.26,2.24
301,hofn,100,IS,1633829262,93,64.2539,-15.2082,45.75,9.93
302,souillac,75,MU,1633829262,83,-20.5167,57.5167,72.36,8.05
303,saint-joseph,59,RE,1633829262,82,-21.3667,55.6167,68.36,12.01
304,gopalpur,99,IN,1633829263,81,19.2667,84.9167,79.47,6.78
305,tiznit,100,MA,1633829263,57,29.5833,-9.5,68.36,1.23
306,eureka,0,US,1633829263,75,40.8021,-124.1637,63.68,3.0
307,gaya,4,IN,1633829264,94,24.7833,85.0,75.11,0.0
308,praia da vitoria,20,CV,1633829264,83,14.9215,-23.5087,77.54,6.91
309,mattru,92,SL,1633829264,98,7.6244,-11.8332,73.94,0.56
310,phalombe,0,MW,1633829265,28,-15.8064,35.6507,70.11,1.03
311,brae,100,GB,1633829265,90,60.3964,-1.353,53.51,15.19
312,prince rupert,9,CA,1633829266,36,52.9669,-108.3847,50.16,3.74
313,yaan,100,NG,1633829266,96,7.3833,8.5667,73.51,6.71
314,roswell,1,US,1633829267,90,34.0232,-84.3616,72.39,0.0
315,ahipara,72,NZ,1633829267,64,-35.1667,173.1667,60.4,11.83
316,shawnee,1,US,1633829267,52,39.05,-95.7669,84.63,3.0
317,nova olinda do norte,96,BR,1633829268,80,-5.5279,-46.7049,76.03,4.79
318,tuktoyaktuk,90,CA,1633829269,80,69.4541,-133.0374,30.2,12.66
319,cerritos,1,US,1633829269,59,33.8583,-118.0648,75.47,4.0
320,petropavlovsk-kamchatskiy,40,RU,1633829270,34,53.0452,158.6483,48.79,17.9
321,wenling,23,CN,1633829270,80,28.3669,121.36,84.9,9.35
322,lasa,3,IT,1633829271,74,46.6166,10.7002,47.28,4.32
323,mahenge,23,TZ,1633829271,83,-8.6833,36.7167,60.03,1.57
324,pekan,85,MY,1633829271,80,3.4836,103.3996,84.31,4.99
325,danilov,100,RU,1633829272,91,58.1908,40.1717,43.84,4.76
326,canico,40,PT,1633829272,80,32.6333,-16.85,72.23,14.97
327,podosinovets,100,RU,1633829273,98,60.2776,47.0659,43.86,2.21
328,amahai,80,ID,1633829273,75,-3.3333,128.9167,83.07,3.29
329,nelson bay,49,NZ,1633829274,66,-41.2833,173.2833,58.8,8.59
330,hamilton,40,US,1633829274,80,39.1834,-84.5333,74.25,1.99
331,whitehorse,75,CA,1633829256,39,60.7161,-135.0538,45.37,9.22
332,calvinia,49,ZA,1633829274,57,-31.4707,19.776,51.66,8.1
333,vangaindrano,2,MG,1633829275,87,-23.35,47.6,64.08,5.44
334,panagar,6,IN,1633829275,74,23.3,79.9833,69.46,3.65
335,kemijarvi,100,FI,1633829276,96,66.7131,27.4306,44.29,7.7
336,kirkuk,0,IQ,1633829276,24,35.4681,44.3922,70.52,9.31
337,sorland,100,NO,1633829227,95,67.667,12.6934,51.31,27.13
338,matara,100,LK,1633829277,87,5.9485,80.5353,79.57,11.54
339,carutapera,100,BR,1633829277,81,-1.195,-46.02,79.21,6.62
340,kavaratti,48,IN,1633829278,79,10.5669,72.642,81.97,12.28
341,kusu,0,JP,1633829278,68,33.2831,131.1514,79.0,5.7
342,lebedyn,98,UA,1633829279,49,50.5852,34.4849,41.4,7.61
343,kupang,82,ID,1633829279,54,-10.1667,123.5833,86.16,4.9
344,bunog,100,PH,1633829279,79,9.1403,117.7817,82.54,9.46
345,porto torres,76,PT,1633829280,90,41.1496,-8.611,69.28,1.99
346,chiredzi,1,ZW,1633829280,51,-21.05,31.6667,74.64,4.56
347,saint-augustin,51,CA,1633829248,61,51.226,-58.6502,41.76,6.08
348,xochistlahuaca,100,MX,1633829281,97,16.7833,-98.25,73.85,1.77
349,manaus,0,BR,1633829165,83,-3.1019,-60.025,82.89,4.61
350,tabuk,39,PH,1633829281,76,17.4189,121.4443,82.36,7.4
351,san carlos,5,ML,1633829228,26,13.3034,-4.8956,83.43,1.14
352,east london,100,IS,1633829282,99,65.0,-15.0,37.15,16.11
353,coahuayana,100,MX,1633829283,87,18.7333,-103.6833,83.68,2.62
354,pemangkat,100,ID,1633829283,82,1.1667,108.9667,82.0,5.59
355,zhanakorgan,79,KZ,1633829284,34,43.9098,67.2495,44.58,5.99
356,ishigaki,20,JP,1633829284,74,24.3448,124.1572,86.13,24.16
357,lofthus,100,NO,1633829284,48,59.9468,10.8018,52.72,6.96
358,asosa,100,ET,1633829285,95,10.0667,34.5333,60.44,5.35
359,tomatlan,100,MX,1633829285,91,19.9333,-105.25,79.54,1.39
360,cherskiy,84,RU,1633829285,94,68.75,161.3,12.34,5.91
361,yima,99,CN,1633829286,59,34.7381,111.8839,53.02,14.47
362,milford,90,US,1633829089,79,41.2223,-73.0565,64.11,5.99
363,shirokiy,0,RU,1633829286,66,49.758,129.523,55.17,20.74
364,egvekinot,96,RU,1633829287,82,66.3167,-179.1667,20.93,3.65
365,mandalgovi,0,MN,1633829287,59,45.7625,106.2708,31.91,8.63
366,progreso,27,MX,1633829287,82,21.2833,-89.6667,83.1,11.36
367,manono,95,CD,1633829288,70,-7.3,27.4167,74.3,2.71
368,yichang,100,CN,1633829191,96,30.7144,111.2847,65.73,2.89
369,ossora,99,RU,1633829289,54,59.2353,163.0719,37.58,4.68
370,tautira,34,PF,1633829289,69,-17.7333,-149.15,84.22,3.85
371,cabatuan,100,PH,1633829289,94,10.8794,122.486,75.16,7.49
372,leeton,90,AU,1633829290,55,-34.5667,146.4,66.25,8.05
373,gornyy,82,RU,1633829290,91,55.1153,83.9059,36.79,7.36
374,markova,0,UA,1633829290,66,48.6758,24.4138,33.15,3.36
375,payakumbuh,59,ID,1633829291,85,-0.2202,100.6308,76.82,1.59
376,tukrah,5,LY,1633829291,51,32.5341,20.5791,74.25,6.85
377,mercedes,0,AR,1633829292,82,-34.6515,-59.4307,59.86,8.25
378,chapais,100,CA,1633829292,79,49.7834,-74.8492,55.18,9.35
379,malpe,73,IN,1633829292,93,13.35,74.7167,76.3,5.59
380,grand river south east,9,US,1633829293,31,38.8755,-109.5012,55.58,7.74
381,padilla,93,CO,1633829293,96,3.2204,-76.3139,71.17,1.92
382,ribeira brava,0,ES,1633829293,85,42.7461,-8.4439,64.65,3.44
383,seybaplaya,100,MX,1633829294,75,19.65,-90.6667,82.51,10.49
384,reporoa,84,NZ,1633829136,45,-38.4333,176.35,64.42,5.53
385,gornopravdinsk,16,RU,1633829173,87,60.05,69.9,29.1,6.51
386,lorengau,100,PG,1633829294,79,-2.0226,147.2712,81.73,2.66
387,raudeberg,100,NO,1633829295,93,61.9875,5.1352,55.2,5.99
388,virbalis,29,LT,1633829295,74,54.6267,22.8169,39.33,3.6
389,paamiut,100,GL,1633829295,53,61.994,-49.6678,35.76,3.09
390,stryn,100,NO,1633829296,93,61.9045,6.7226,60.15,8.75
391,takab,0,IR,1633829296,64,36.4009,47.1133,43.47,2.95
392,gilbues,9,BR,1633829296,25,-9.8317,-45.3439,81.82,4.99
393,charcas,1,MX,1633829297,57,23.1333,-101.1167,67.95,8.72
394,gorin,100,RU,1633829297,95,51.1983,136.6669,44.46,4.56
395,mayo,20,US,1633829297,83,38.8876,-76.5119,69.75,11.99
396,tornio,100,FI,1633829298,97,65.8481,24.1466,48.22,17.29
397,dunmore town,100,US,1633829298,85,41.4198,-75.6324,61.39,1.01
398,vila velha,93,PT,1633829156,60,42.0304,-8.1588,59.32,4.9
399,hay river,63,GB,1633829299,94,52.0705,-3.1274,59.52,3.02
400,chililabombwe,17,ZM,1633829299,41,-12.3648,27.8229,70.32,4.32
401,besancon,6,FR,1633829299,100,47.2488,6.0182,46.15,4.76
402,nome,1,US,1633829300,61,64.5011,-165.4064,43.16,5.75
403,ayni,46,TJ,1633829180,78,39.3941,68.5377,41.43,4.92
404,dukat,19,RU,1633829300,77,62.55,155.55,19.94,4.16
405,grindavik,20,IS,1633829300,93,63.8424,-22.4338,42.75,8.05
406,kabanjahe,82,ID,1633829301,80,3.1001,98.4908,68.76,2.37
407,atyrau,0,KZ,1633829301,50,47.1167,51.8833,46.49,6.53
408,ann arbor,100,US,1633829301,59,37.0309,-92.1974,77.0,8.43
409,honiara,51,SB,1633829302,66,-9.4333,159.95,86.36,5.7
410,edd,100,ER,1633829302,60,13.9297,41.6925,89.06,12.19
411,sendreni,0,RO,1633829302,43,45.4,27.9167,41.77,9.51
412,honningsvag,100,NO,1633829303,90,70.9821,25.9704,44.06,8.52
413,christiana,0,ZA,1633829303,35,-27.914,25.1611,57.18,16.6
414,providencia,1,MX,1633829303,36,28.7167,-111.5833,93.25,13.51
415,natal,20,BR,1633829304,83,-5.795,-35.2094,79.02,6.91
416,eagle pass,1,US,1633829304,40,43.6954,-116.354,60.75,6.91
417,buritizeiro,98,BR,1633829305,56,-17.3511,-44.9622,78.6,7.76
418,kaliua,86,TZ,1633829305,55,-5.0606,31.7936,74.26,4.05
419,husavik,100,IS,1633829305,97,66.0449,-17.3389,39.11,11.1
420,yongan,100,CN,1633829306,42,39.6957,113.6871,43.02,12.93
421,yakeshi,100,CN,1633829306,87,49.2833,120.7333,36.66,24.76
422,oberstdorf,2,DE,1633829307,92,47.4,10.2833,41.61,3.36
423,robertsport,99,LR,1633829229,86,6.7533,-11.3686,77.88,5.1
424,gboko,100,NG,1633829307,94,7.3179,8.9951,73.72,10.89
425,fort nelson,85,NL,1633829307,90,52.6517,6.3861,46.94,4.41
426,beckley,90,US,1633829308,93,37.7782,-81.1882,63.01,1.99
427,neulengbach,0,AT,1633829308,88,48.1974,15.9022,44.58,3.0
428,oistins,75,BB,1633829120,94,13.0667,-59.5333,75.29,18.41
429,mamallapuram,100,IN,1633829309,81,12.6264,80.1722,82.45,10.89
430,tilichiki,65,RU,1633829309,55,60.4667,166.1,32.14,5.77
431,chodavaram,66,IN,1633829310,83,17.8333,82.95,80.44,3.06
432,baykit,100,RU,1633829310,82,61.67,96.37,32.92,15.35
433,price,90,US,1633829185,61,39.5994,-110.8107,48.11,13.8
434,talcahuano,90,CL,1633829115,82,-36.7167,-73.1167,53.28,6.91
435,mirnyy,100,RU,1633829311,96,62.5353,113.9611,35.28,12.71
436,whitianga,72,NZ,1633829311,56,-36.8333,175.7,64.17,7.47
437,taoudenni,100,ML,1633829312,10,22.6783,-3.9836,89.74,4.99
438,ulaanbaatar,0,MN,1633829147,80,47.9077,106.8832,24.93,0.0
439,berdigestyakh,100,RU,1633829312,78,62.0989,126.6992,34.3,9.51
440,seoul,90,KR,1633829092,76,37.5683,126.9778,76.6,9.22
441,camacha,40,PT,1633829312,73,33.0833,-16.3333,68.76,9.22
442,coihaique,96,CL,1633829134,90,-45.5752,-72.0662,47.43,6.42
443,goundi,100,TD,1633829313,75,9.3627,17.366,76.19,2.26
444,marsh harbour,97,GB,1633829313,54,53.6512,-1.8078,58.08,1.01
445,chama,6,CH,1633829314,90,47.1821,8.4636,49.05,0.0
446,viransehir,0,TR,1633829314,24,37.2353,39.7631,69.04,7.2
447,mitsamiouli,76,KM,1633829314,83,-11.3847,43.2844,76.03,12.62
448,pacific grove,100,US,1633829315,79,38.482,-90.7415,79.05,4.0
449,pedasi,92,PA,1633829315,83,7.5333,-80.0333,78.06,7.7
450,mangrol,81,IN,1633829315,79,21.1167,70.1167,80.83,1.14
451,marienburg,45,PL,1633829316,73,54.0359,19.0266,39.88,4.56
452,mount isa,98,GB,1633829316,53,53.6597,-1.8537,56.98,1.01
453,petropavl,100,KZ,1633829316,82,54.8753,69.1628,38.93,8.3
454,vanavara,100,RU,1633829316,79,60.34,102.2797,32.79,18.05
455,kuantan,20,MY,1633829317,84,3.8077,103.326,84.31,1.14
456,vidim,100,RU,1633829317,83,56.4088,103.1106,39.74,15.86
457,makakilo city,90,US,1633829317,65,21.3524,-158.0865,76.71,18.41
458,turukhansk,100,RU,1633829318,73,65.8167,87.9833,24.53,15.9
459,iki-burul,100,RU,1633829318,66,45.8208,44.6472,39.54,9.75
460,irituia,100,BR,1633829318,96,-1.7711,-47.4381,74.32,3.62
461,dwarka,11,IN,1633829319,81,22.2394,68.9678,81.88,6.67
462,smithers,40,CA,1633829319,49,54.7804,-127.1743,46.72,19.57
463,ornskoldsvik,90,SE,1633829107,100,63.2909,18.7153,46.22,0.0
464,synya,15,RU,1633829319,88,65.3718,58.0387,27.7,4.12
465,santa isabel do rio negro,100,PH,1633829223,74,17.486,120.4348,82.67,1.77
466,belyy yar,2,RU,1633829320,79,55.8402,32.9419,35.28,2.73
467,port macquarie,100,CD,1633829252,51,-7.0349,29.7638,79.48,2.75
468,san ramon,5,ML,1633829320,26,13.3034,-4.8956,83.43,1.14
469,nkayi,87,CG,1633829320,81,-4.1841,13.2884,75.96,4.16
470,yacuiba,100,BO,1633829321,95,-22.038,-63.6797,62.49,8.21
471,akdepe,0,TM,1633829180,57,42.0551,59.3788,37.49,7.36
472,saldanha,38,ZA,1633829137,79,-33.0117,17.9442,51.85,9.89
473,port hardy,100,CD,1633829198,51,-7.0349,29.7638,79.48,2.75
474,katobu,100,ID,1633829321,66,-4.9408,122.5276,83.82,3.27
475,alice springs,1,US,1633829322,71,27.7523,-98.0697,78.69,10.36
476,kruisfontein,5,ZA,1633829322,78,-34.0033,24.7314,52.88,7.87
477,sakakah,0,SA,1633829085,20,29.9697,40.2064,74.77,6.85
478,dubai,0,AE,1633828765,79,25.2582,55.3047,85.93,5.75
479,mango,75,US,1633829322,83,27.9797,-82.3065,81.86,0.0
480,voh,0,NC,1633829323,42,-20.9667,164.7,83.46,6.87
481,birao,100,CF,1633829323,42,10.2849,22.7882,76.01,2.89
482,mayskiy,100,RU,1633829323,41,47.6931,40.1025,45.81,11.56
483,montrose,34,US,1633829211,46,38.4166,-108.2673,42.37,5.48
484,namibe,1,AO,1633829098,80,-15.1961,12.1522,63.61,2.73
485,port keats,100,CD,1633829154,51,-7.0349,29.7638,79.48,2.75
486,boralday,75,KZ,1633829324,70,43.3578,76.8594,39.06,4.47
487,hambantota,90,LK,1633829324,100,6.1241,81.1185,79.14,8.05
488,sakaiminato,20,JP,1633829324,57,35.55,133.2333,82.38,12.66
489,fairbanks,90,US,1633829103,84,64.8378,-147.7164,39.6,4.61
490,santiago del estero,75,CL,1633829325,59,-33.4569,-70.6483,58.86,10.36
491,kushiro,75,JP,1633829325,82,42.975,144.3747,61.75,17.27
492,belaya gora,8,UA,1633829326,48,49.029,25.7706,37.98,6.33
493,touros,96,BR,1633829326,77,-5.1989,-35.4608,77.9,14.45
494,seymchan,6,RU,1633829327,57,62.8833,152.4333,24.35,5.7
495,saint-pierre,20,RE,1633829327,73,-21.3393,55.4781,69.44,8.05
496,jasper,1,US,1633829327,47,37.2001,-94.3502,79.0,1.99
497,mocuba,0,MZ,1633829328,84,-16.8392,36.9856,66.49,1.74
498,sarahan,0,IN,1633829328,42,31.5167,77.8,51.66,5.39
499,tangjiazhuang,72,CN,1633829328,48,39.7333,118.45,57.58,13.91
500,luwuk,100,ID,1633829329,66,-0.9516,122.7875,84.4,5.21
501,cabedelo,12,BR,1633829329,80,-6.9811,-34.8339,77.67,10.51
502,gazojak,3,TM,1633829329,66,41.1875,61.4036,43.83,8.08
503,santa cruz,100,PH,1633829330,74,17.486,120.4348,82.67,1.77
504,pampa,1,US,1633829330,33,35.5362,-100.9599,88.75,8.05
505,kidal,26,ML,1633829330,10,18.4411,1.4078,82.44,10.76
506,sahuaripa,0,MX,1633829331,35,29.05,-109.2333,81.48,3.89
507,bambous virieux,5,MU,1633829331,79,-20.2567,57.4061,71.13,12.97
508,baruun-urt,3,MN,1633829331,72,46.6806,113.2792,33.24,13.73
509,sulangan,100,PH,1633829332,80,11.1373,123.7228,80.92,31.18
510,salinas,1,US,1633829309,66,36.6777,-121.6555,73.0,9.22
511,khanpur,0,PK,1633829332,36,28.6453,70.6567,81.93,10.67
512,sohag,0,EG,1633829333,36,26.557,31.6948,70.09,8.21
513,dakar,75,SN,1633829333,89,14.6937,-17.4441,82.53,6.91
514,alaca,0,TR,1633829333,54,40.1683,34.8425,53.74,3.85
515,brigantine,90,US,1633829117,90,39.4101,-74.3646,69.06,13.8
516,asfi,100,MA,1633829334,87,32.2994,-9.2372,68.09,10.0
517,nova paka,96,BR,1633829268,80,-5.5279,-46.7049,76.03,4.79
518,san pedro,5,ML,1633829208,26,13.3034,-4.8956,83.43,1.14
519,wajir,5,KE,1633829334,69,1.7471,40.0573,75.63,12.82
520,marawi,100,PH,1633829335,79,7.9986,124.2928,71.65,4.23
521,hovd,9,MN,1633829335,35,48.0056,91.6419,32.63,1.77
522,sterling,90,US,1633829126,91,39.0062,-77.4286,67.98,3.0
523,najran,7,SA,1633829335,42,17.4924,44.1277,74.05,2.68
524,sloboda,100,RU,1633829336,61,51.1421,40.3021,40.03,5.79
525,arlit,7,NE,1633829336,9,18.7369,7.3853,82.74,9.28
526,belokurikha,0,RU,1633829336,68,51.9959,84.9896,38.57,6.29
527,acapulco,90,MX,1633829088,94,16.8634,-99.8901,75.02,6.91
528,garden city,11,DE,1633829337,69,53.688,12.0492,42.75,6.98
529,chara,87,RU,1633829338,52,56.9064,118.2631,34.11,3.33
530,laukaa,99,RU,1633829338,71,58.7372,29.8453,45.82,5.3
531,lufilufi,100,WS,1633829338,76,-13.8745,-171.5986,83.98,7.7
532,turan,20,VN,1633829265,74,16.0678,108.2208,84.25,4.61
533,kissamos,0,GR,1633829339,71,35.4939,23.6569,69.48,1.9
534,marsa matruh,20,MT,1633829339,82,35.8792,14.4953,69.28,4.61
535,stonehaven,98,GB,1633829340,95,56.9637,-2.2118,46.58,4.07
536,luderitz,18,NA,1633829340,53,-26.6481,15.1594,62.85,13.51
537,igarka,96,RU,1633829340,80,67.4667,86.5833,24.57,17.4
538,nesna,100,NO,1633829341,98,66.1967,13.0213,52.57,14.27
539,iquique,7,CL,1633829238,78,-20.2208,-70.1431,60.84,3.8
540,borodino,100,RU,1633829341,85,55.9106,94.8983,41.11,12.26
541,medeiros neto,91,ES,1633829342,59,41.9037,-7.5438,56.17,1.83
542,kralendijk,99,BQ,1633829342,83,12.15,-68.2667,80.58,6.91
543,ribnitz-damgarten,7,DE,1633829343,67,54.25,12.4667,49.14,8.55
544,vardo,100,NO,1633829343,91,70.3705,31.1107,42.04,6.82
545,santa isabel,100,PH,1633829223,74,17.486,120.4348,82.67,1.77
546,lavrentiya,82,RU,1633829344,74,65.5833,-171.0,32.34,7.38
547,aswan,0,EG,1633829215,30,24.0934,32.907,83.5,10.36
548,klerksdorp,0,ZA,1633829344,29,-26.8521,26.6667,58.37,9.35
549,san policarpo,5,ML,1633829208,26,13.3034,-4.8956,83.43,1.14
550,noumea,0,NC,1633829345,95,-22.2763,166.4572,81.0,20.22
551,mahonda,71,TZ,1633829345,81,-6.45,39.4667,77.59,10.31
552,sellye,68,SK,1633829346,58,48.1513,17.8806,45.64,6.13
553,charters towers,16,US,1633829346,67,38.5736,-83.4333,70.88,2.01
554,komsomolets,100,KZ,1633829346,82,53.7453,62.0708,42.91,7.36
555,jiangyou,100,CN,1633829347,88,31.7667,104.7167,59.85,5.44
556,manokwari,10,ID,1633829347,69,-0.8667,134.0833,84.27,4.03
557,tual,90,ID,1633829347,78,-5.6667,132.75,82.17,8.81
558,antalaha,3,MG,1633829348,80,-14.9003,50.2788,66.42,6.76
559,carauari,100,BR,1633829348,75,-4.8828,-66.8958,80.4,1.72
560,tuatapere,84,NZ,1633829349,50,-46.1333,167.6833,64.81,3.76
561,amambai,100,BR,1633829349,97,-23.1042,-55.2258,66.07,9.24
562,bose,100,IT,1633829349,82,45.4612,8.0137,55.76,1.99
563,bourail,0,NC,1633829350,41,-21.5667,165.4833,80.42,7.2
564,yashkul,100,RU,1633829350,58,46.1711,45.3435,46.35,7.63
565,marovoay,11,MG,1633829351,63,-16.1,46.6333,71.74,5.23
566,camden,100,US,1633829187,88,39.7835,-74.9663,66.88,1.01
567,adrar,55,MR,1633829351,16,20.5022,-10.0711,84.2,8.9
568,tshikapa,99,CD,1633829351,58,-6.4167,20.8,77.58,2.46
569,raton,1,US,1633829267,27,36.9034,-104.4391,63.21,16.11
570,nuristan,35,AF,1633829352,59,35.3,70.8333,33.62,2.15
